[
  {
    "id":"896931c6ffa4ed0757df2afc60cb13dc20a15e2e",
    "name":"Jiayuan Hotel",
    "location":{
      "latitude":39.953464,
      "longitude":116.33617200000003
    },
    "address":"6 Daliushu Rd, Haidian"
  },
  {
    "id":"3804683718acedb3d3c336d60db0a69e95044255",
    "name":"Shangyuan Hotel",
    "location":{
      "latitude":39.94669,
      "longitude":116.34383400000002
    },
    "address":"40 Gaoliangqiao Byway, Haidian"
  },
  {
    "id":"a381ec514a500843301560eba13cf2a00c976af9",
    "name":"Hongguoyuan Hotel",
    "location":{
      "latitude":39.950466,
      "longitude":116.34339899999998
    },
    "address":"西直门外上园村3号北方交大院内, Jiaotong Daxue Rd, Haidian"
  },
  {
    "id":"644332158f7248968e0cc3a22013c71672467962",
    "name":"Beijing Jiaotong University Student Er Restaurant",
    "location":{
      "latitude":39.951051,
      "longitude":116.33808999999997
    },
    "address":"15 Gaoliangqiao Byway, Haidian, Beijing"
  },
  {
    "id":"b33d67b6f1241c18fc62e474043caf2ac20bd336",
    "name":"Lingering Garden",
    "location":{
      "latitude":39.949918,
      "longitude":116.343749
    },
    "address":"Jiaotong Daxue Rd, Haidian"
  },
  {
    "id":"96423986df09168e5501745de7bc0c0c9ce03cf0",
    "name":"静思素食坊",
    "location":{
      "latitude":39.948467,
      "longitude":116.340463
    },
    "address":"高粱桥斜街甲30号梅苑饭店1-2楼（近交通大学南门）, Haidian, Beijing"
  },
  {
    "id":"65544dac176bec8bbaffe9803b00df7e1a845c9f",
    "name":"北京和庭餐饮",
    "location":{
      "latitude":39.947155,
      "longitude":116.33841099999995
    },
    "address":"高梁桥斜街18号中苑宾馆一层, Haidian, Beijing"
  },
  {
    "id":"6849b2e1c5bc416b00e64c1afd0dc08737557052",
    "name":"Sankeshu",
    "location":{
      "latitude":39.947014,
      "longitude":116.33706800000004
    },
    "address":"太平庄13号, Qixiang Rd, Haidian"
  },
  {
    "id":"dec50bcde8cfb642ee3ed43236ffa7c25469424e",
    "name":"科苑餐厅",
    "location":{
      "latitude":39.955848,
      "longitude":116.33836300000007
    },
    "address":"2 Daliushu Rd, Haidian"
  },
  {
    "id":"dedd45fa5f0558e80f3cfcb25213a9f4e9fe8e73",
    "name":"乐天玛特",
    "location":{
      "latitude":39.957464,
      "longitude":116.33815300000003
    },
    "address":"中央财经大学学生宿舍区, 62 Xueyuan South Rd, Haidian"
  },
  {
    "id":"f10555fba7d6c551597b4f67c334728f42e8cc1e",
    "name":"邓老凉茶",
    "location":{
      "latitude":39.954518,
      "longitude":116.33580299999994
    },
    "address":"大柳树南站北方交大西门对面, Haidian, Beijing"
  },
  {
    "id":"f21a2f05590a9ee3fc1016cf06513677d1931e40",
    "name":"Golden Phoenix",
    "location":{
      "latitude":39.948626,
      "longitude":116.34279100000003
    },
    "address":"Jiaotong Daxue Rd, Haidian"
  },
  {
    "id":"2c46a7bf6bfa88c80f374d8a5513d1da4874bfa4",
    "name":"7-Eleven",
    "location":{
      "latitude":39.954652,
      "longitude":116.33525800000007
    },
    "address":"Daliushu Rd, Haidian"
  },
  {
    "id":"52373e3967faf35e1766e5c53f9eb495d032e76e",
    "name":"大茶杯",
    "location":{
      "latitude":39.948786,
      "longitude":116.34320600000001
    },
    "address":"3 Jiaotong Daxue Rd, Haidian"
  },
  {
    "id":"aa46965676138c197280c30b807ee8b49a467d35",
    "name":"疯狂烤翅",
    "location":{
      "latitude":39.948697,
      "longitude":116.34084400000006
    },
    "address":"高梁桥斜街（交通大学南门对面）, Haidian, Beijing"
  },
  {
    "id":"bbfc2e8171d4540fb19d99358acd4bb3d5823287",
    "name":"Fruitime",
    "location":{
      "latitude":39.95267,
      "longitude":116.33552099999997
    },
    "address":"23 Daliushu Rd, Haidian"
  },
  {
    "id":"6ed56615a9b7ee0a7a5a37c2df82fdf64f0b892c",
    "name":"金凤成祥",
    "location":{
      "latitude":39.947042,
      "longitude":116.34156699999994
    },
    "address":"农大东路上地华联超市B1楼14号（近上地南口）, Haidian, Beijing"
  },
  {
    "id":"83f3ee3972dc09811b85d64020cb637b52e7bba1",
    "name":"北京比多快餐有限公司",
    "location":{
      "latitude":39.948212,
      "longitude":116.34324800000002
    },
    "address":"上园村32号, Haidian, Beijing"
  },
  {
    "id":"98a0a542cb39967b53a162a388e25032e06ab234",
    "name":"金凤成祥交大二店",
    "location":{
      "latitude":39.948149,
      "longitude":116.34185400000001
    },
    "address":"Jiaotong Daxue Rd, Haidian"
  },
  {
    "id":"d7964e311f6eea271134ded2c82a7a955656e9f8",
    "name":"鲜果时光",
    "location":{
      "latitude":39.948026,
      "longitude":116.33997199999999
    },
    "address":"高粱桥斜街1号蟹老宋香锅对面（近大慧寺）, Haidian, Beijing"
  },
  {
    "id":"e468ae23f4b34ccf32507dede354b8fa21b98d55",
    "name":"三元梅园乳品店",
    "location":{
      "latitude":39.948107,
      "longitude":116.34273600000006
    },
    "address":"Jiaotong Daxue Rd"
  },
  {
    "id":"afe576a4e6e3cc134fb49d0ad4c7fa79118c02fd",
    "name":"Golden Phoenix",
    "location":{
      "latitude":39.957694,
      "longitude":116.34244999999999
    },
    "address":"Xueyuan South Rd, Haidian"
  },
  {
    "id":"88cc8e8b3a5d8d3d60dcb2a549763c8410ea4133",
    "name":"Niushiniu",
    "location":{
      "latitude":39.952039,
      "longitude":116.33553899999993
    },
    "address":"2 Dahuisi Rd, Haidian"
  },
  {
    "id":"63a75237b16168f0d806277a09477ab4ec54dd82",
    "name":"甜品时间",
    "location":{
      "latitude":39.955848,
      "longitude":116.33836300000007
    },
    "address":"2 Daliushu Rd, Haidian"
  },
  {
    "id":"5c21b2ab7b59001966ca425c0f190ad65dd7e78c",
    "name":"Nadu Spicy-hot Hotpot",
    "location":{
      "latitude":39.947008,
      "longitude":116.34175200000004
    },
    "address":"Gaoliangqiao Byway, Haidian"
  },
  {
    "id":"14e8fe380b27b5c82798ac1faee4b4ced145ddca",
    "name":"高丽王朝酱汤牛排火锅",
    "location":{
      "latitude":39.957419,
      "longitude":116.33693100000005
    },
    "address":"Haidian, Beijing"
  },
  {
    "id":"3766201f67f40c7768159fe842d7b2bccd1a2623",
    "name":"Lao Shanghai Town God s Temple Food",
    "location":{
      "latitude":39.947492,
      "longitude":116.34211400000004
    },
    "address":"上园村甲4号, Gaoliangqiao Byway, Haidian"
  },
  {
    "id":"8a35d0e5f4ad0222a6bdc29dbc4cec431c0f89eb",
    "name":"Jitian Weidao",
    "location":{
      "latitude":39.951765,
      "longitude":116.33525099999997
    },
    "address":"Dahuisi Rd, Haidian"
  },
  {
    "id":"a83fb8bb35e7290c7e1079cee49829f92fb97879",
    "name":"Hongyun Tianwaitian Roast Duck Home Cooking",
    "location":{
      "latitude":39.947508,
      "longitude":116.34072900000001
    },
    "address":"高粱桥斜街19号, Qixiang Rd, Haidian"
  },
  {
    "id":"03e56d7d19cd1375905e278a08757de99b886e4d",
    "name":"锅底捞",
    "location":{
      "latitude":39.948584,
      "longitude":116.34007399999996
    },
    "address":"高梁桥斜街28号, Haidian, Beijing"
  },
  {
    "id":"99167c1e451f174dce393f6ca1b297bbd3fd0cf8",
    "name":"铁锅炖江鱼",
    "location":{
      "latitude":39.948664,
      "longitude":116.33999100000005
    },
    "address":"高粱桥斜街28号（近北方交大南门）, Haidian, Beijing"
  },
  {
    "id":"7c9c469a17053d5fa5ab860dd2003512fd2e40f6",
    "name":"四命院",
    "location":{
      "latitude":39.947368,
      "longitude":116.34122500000001
    },
    "address":"高粱桥斜街19号, Haidian, Beijing"
  },
  {
    "id":"b2a2339d8508c71627001e4b5815bfc3da292e97",
    "name":"味口全饺子串大柳树店",
    "location":{
      "latitude":39.956176,
      "longitude":116.33515
    },
    "address":"5 Daliushu Rd, Haidian"
  },
  {
    "id":"ab12a8d60538a1299ab023c799e4daf69ec9a040",
    "name":"Guolin Home Cooking Beixiaguan Shop",
    "location":{
      "latitude":39.947332,
      "longitude":116.34122400000001
    },
    "address":"19 Gaoliangqiao Byway, Haidian"
  },
  {
    "id":"c90231ed34f4de78410468a478ba930ca1cc00bc",
    "name":"新疆美食城高梁桥斜街",
    "location":{
      "latitude":39.946561,
      "longitude":116.34343000000001
    },
    "address":"高梁桥斜街, Haidian, Beijing"
  },
  {
    "id":"b165976ca3450e994c6f10666839e630250ffbcc",
    "name":"江边诱惑巫山烤全鱼交大店",
    "location":{
      "latitude":39.948596,
      "longitude":116.34290399999998
    },
    "address":"Haidian, Beijing"
  },
  {
    "id":"4b424d55d33f8fd0aab45422cc52c4307fa4e733",
    "name":"Yinhe Outer Club",
    "location":{
      "latitude":39.948318,
      "longitude":116.33952
    },
    "address":"13 Gaoliangqiao Byway, Haidian"
  },
  {
    "id":"2c83fc8043a18c49c3f45b55a66423d6c1a4971f",
    "name":"中国政法大学法家楼饭庄",
    "location":{
      "latitude":39.950748,
      "longitude":116.33623
    },
    "address":"大慧寺路2号, Haidian, Beijing"
  },
  {
    "id":"04f02b0326e8ec51150b3781c5be9f7fadcc0445",
    "name":"Yudu Jiachu Wanzhou Roasted Fish",
    "location":{
      "latitude":39.94697,
      "longitude":116.34182499999997
    },
    "address":"19 Gaoliangqiao Byway, Haidian"
  },
  {
    "id":"fb8c43976009ce4f51e1d9ec5db59b07c50aa873",
    "name":"Yudouji Soybean Milk Yuhuoguo",
    "location":{
      "latitude":39.952388,
      "longitude":116.33526699999993
    },
    "address":"Dahuisi Rd, Haidian"
  },
  {
    "id":"2b803a25921c8ea548f73f14da64927e86639f9a",
    "name":"财园餐厅",
    "location":{
      "latitude":39.957464,
      "longitude":116.33815300000003
    },
    "address":"中央财经大学学生宿舍区, 62 Xueyuan South Rd, Haidian"
  },
  {
    "id":"df13aa74d4b83b60b42f85efc976148d5ceb64e8",
    "name":"四合院羊蝎子高梁桥店",
    "location":{
      "latitude":39.94679,
      "longitude":116.34211700000003
    },
    "address":"高梁桥斜街19号, Haidian, Beijing"
  },
  {
    "id":"1335c0d31dab37e419d95ea48347d20590ad909b",
    "name":"北京市昆鹏影视技术公司苑上园美食城",
    "location":{
      "latitude":39.947301,
      "longitude":116.34109999999998
    },
    "address":"西外高梁桥斜街19号, Haidian, Beijing"
  },
  {
    "id":"d273b1b9ec7e41366fb0279f208159f64f7ab815",
    "name":"老吃客华横店",
    "location":{
      "latitude":39.953129,
      "longitude":116.33612900000003
    },
    "address":"大柳树路, Haidian, Beijing"
  },
  {
    "id":"0e7c84b90330fa5f0c36a4d4cbf25d76bd12864e",
    "name":"Ladangjia",
    "location":{
      "latitude":39.957515,
      "longitude":116.336996
    },
    "address":"62 Xueyuan South Rd, Haidian"
  },
  {
    "id":"1f2e7c15a6e035766efb4587d2a5aceb9a72228a",
    "name":"Northeast Sanjiang Huoyu Cun",
    "location":{
      "latitude":39.948519,
      "longitude":116.34019799999999
    },
    "address":"Gaoliangqiao Byway, Haidian"
  },
  {
    "id":"b20ff7af381a61ebf74f4e612754ac0dab21a18f",
    "name":"紫玉栗子",
    "location":{
      "latitude":39.95634,
      "longitude":116.33996000000002
    },
    "address":"Xueyuan South Rd"
  },
  {
    "id":"d677addac84f47cd2ed208e69c26948f3bfe30f6",
    "name":"羊婆婆火锅",
    "location":{
      "latitude":39.95605,
      "longitude":116.33618000000001
    },
    "address":"中央财经大学学生宿舍区, 62 Xueyuan South Rd, Haidian"
  },
  {
    "id":"6a916ba27106e08109900f920b44b16fb9fc33f6",
    "name":"蜀源小肥羊",
    "location":{
      "latitude":39.949627,
      "longitude":116.33831299999997
    },
    "address":"高梁桥斜街甲22号,北京交通大学西门以南130米路东, Haidian, Beijing"
  },
  {
    "id":"b176244e78da94f803aab9751abced46ac96d2f2",
    "name":"鼎好一碗香24小时面馆",
    "location":{
      "latitude":39.947274,
      "longitude":116.33899999999994
    },
    "address":"高梁桥斜街17号天外天烤鸭家旁边, Haidian, Beijing"
  },
  {
    "id":"f38e757f447b1d12ad6a7c349d19a8aeafedc3eb",
    "name":"Baily Coffee American Restaurant",
    "location":{
      "latitude":39.953465,
      "longitude":116.33535400000005
    },
    "address":"Daliushu Rd, Haidian"
  },
  {
    "id":"8abeb268a3c2e4abaf7644274dacc177db831a6d",
    "name":"梅苑饭店休闲娱乐",
    "location":{
      "latitude":39.948496,
      "longitude":116.340283
    },
    "address":"西直门高粱桥斜街甲30号, Haidian, Beijing"
  },
  {
    "id":"14c2b6b9d827fa529adb914ebc631d0f50b40683",
    "name":"Renyi Restaurant",
    "location":{
      "latitude":39.952395,
      "longitude":116.33539399999995
    },
    "address":"2 Dahuisi Rd, Haidian"
  },
  {
    "id":"4f6c07ff1581908dc392bcbd5338e6ad390dca55",
    "name":"担仔喜面",
    "location":{
      "latitude":39.953945,
      "longitude":116.33526400000005
    },
    "address":"富海大厦, Daliushu Rd, Haidian"
  },
  {
    "id":"0dd14694413105dd233305142571285fdaf65020",
    "name":"富海银座日本料理铁板烧茶艺",
    "location":{
      "latitude":39.953279,
      "longitude":116.33534499999996
    },
    "address":"大柳树富海中心3, Haidian, Beijing"
  },
  {
    "id":"442307d13313b3993ca2ac80435d50f901e33089",
    "name":"Suannaiwu",
    "location":{
      "latitude":39.951922,
      "longitude":116.33545300000003
    },
    "address":"2 Dahuisi Rd, Haidian, Beijing"
  },
  {
    "id":"b27cb9457e4b8fe374bfbbd5e1798d088ad86809",
    "name":"九头鹰酒家高梁桥店",
    "location":{
      "latitude":39.949603,
      "longitude":116.33835499999998
    },
    "address":"高梁桥斜街甲22-3号,北京交通大学西门以南120米路东, Haidian, Beijing"
  },
  {
    "id":"c47fcfe72c6cf79f59ff00367b9e92e96e079522",
    "name":"卫健美烧烤店",
    "location":{
      "latitude":39.948751,
      "longitude":116.34135900000001
    },
    "address":"高梁桥上园村3号, Haidian, Beijing"
  },
  {
    "id":"3d5ecc5aa0baf30b459581115d394db23f0aab5f",
    "name":"Quik Convenience Store",
    "location":{
      "latitude":39.948603,
      "longitude":116.342713
    },
    "address":"北下关, Jiaotong Daxue Rd, Haidian"
  },
  {
    "id":"8080bb2e7532b16b5f8af36dcbb0d5304e1adc12",
    "name":"老西北面馆",
    "location":{
      "latitude":39.957464,
      "longitude":116.33815300000003
    },
    "address":"中央财经大学学生宿舍区, 62 Xueyuan South Rd, Haidian"
  },
  {
    "id":"bfbeb8fcc448a2294b0b9f0f57b4a11764148271",
    "name":"Wushan Roast Whole Fish",
    "location":{
      "latitude":39.950817,
      "longitude":116.350011
    },
    "address":"交大东路46号, Haidian"
  },
  {
    "id":"2472a241610a3aeb8e5f5c282f206f060ba6df17",
    "name":"Jinhui International Business Conference Hotel",
    "location":{
      "latitude":39.957153,
      "longitude":116.35008399999992
    },
    "address":"48 Xueyuan South Rd, Haidian, Beijing"
  },
  {
    "id":"93aca1d5df2efec45ba6a6179366a54cc57d4ea8",
    "name":"Zhulu Tea House",
    "location":{
      "latitude":39.951981,
      "longitude":116.34823099999994
    },
    "address":"36 Jiaoda East Rd, Haidian"
  },
  {
    "id":"168554f709aea747d42efd31a2ff8c531221e1e1",
    "name":"物美便利店交通大学路店",
    "location":{
      "latitude":39.94939,
      "longitude":116.34851400000002
    },
    "address":"Haidian, Beijing"
  },
  {
    "id":"aa7b04548e890ce5ba154f912474f83477204b3a",
    "name":"KFC",
    "location":{
      "latitude":39.95787,
      "longitude":116.34860000000003
    },
    "address":"50 Xueyuan South Rd, Haidian"
  },
  {
    "id":"a06c7f54f778aa174c466307141ea846d85c60a9",
    "name":"Beijing Hualian",
    "location":{
      "latitude":39.957875,
      "longitude":116.34881599999994
    },
    "address":"50 Xueyuan South Rd, Haidian"
  },
  {
    "id":"1f3bea78656029dfbfbc1a5724c9b74055353baa",
    "name":"Lashangyin",
    "location":{
      "latitude":39.949424,
      "longitude":116.34665999999993
    },
    "address":"交通大学南门向东200米路南, Jiaotong Daxue Rd, Haidian"
  },
  {
    "id":"ac8063dd035d03d0a0adea846d351b7e8d47bf0d",
    "name":"McDonald's",
    "location":{
      "latitude":39.957732,
      "longitude":116.34580200000005
    },
    "address":"大柳树路2号院, Haidian"
  },
  {
    "id":"e755e5bc9ca94937787d39b785f93e7a929e2f9b",
    "name":"Laobian Dumplings",
    "location":{
      "latitude":39.949672,
      "longitude":116.34734000000003
    },
    "address":"交通大学路南侧, Jiaotong Daxue Rd, Haidian"
  },
  {
    "id":"3164dcdb705a4e15675615249b832e80a6f0d373",
    "name":"Shangbinzhai",
    "location":{
      "latitude":39.953622,
      "longitude":116.34734900000001
    },
    "address":"交大东门外, Jiaoda East Rd, Haidian"
  },
  {
    "id":"e8e873c43011cbe86aa8ae403f78535e868b06fb",
    "name":"Weiduomei",
    "location":{
      "latitude":39.949446,
      "longitude":116.34832299999994
    },
    "address":"北下关, Jiaotong Daxue Rd, Haidian"
  },
  {
    "id":"72c9aebfc0632167d4908cdaa03ccdf3a33bfdf5",
    "name":"No.9 Weidao Restaurant",
    "location":{
      "latitude":39.949094,
      "longitude":116.34556799999996
    },
    "address":"9 Jiaotong Daxue Rd, Haidian"
  },
  {
    "id":"adf54ac4baf4c45613dc50098f89125d131616d1",
    "name":"Tube station",
    "location":{
      "latitude":39.949637,
      "longitude":116.34597800000006
    },
    "address":"交通大学路, Haidian, Beijing"
  },
  {
    "id":"0061a6a2520266223653db95042dc4c92a5f044e",
    "name":"祥顺四合院",
    "location":{
      "latitude":39.947586,
      "longitude":116.34571499999993
    },
    "address":"高粱桥斜街19号, Haidian, Beijing"
  },
  {
    "id":"06e2d992200594cfe2a4e314f8828c708e7060df",
    "name":"避风塘街景甜品饮料吧",
    "location":{
      "latitude":39.949375,
      "longitude":116.34526000000005
    },
    "address":"交通大学路, Haidian, Beijing"
  },
  {
    "id":"1bf81500168c5958eb30176a0fcb1ebbf91339a5",
    "name":"乖乖毅餐厅",
    "location":{
      "latitude":39.953696,
      "longitude":116.35104799999999
    },
    "address":"明光寺11号, Haidian, Beijing"
  },
  {
    "id":"fdee50090901d77d5d7d84391ad2ec0161ae5dc6",
    "name":"Beijing Daoxiangcun Foodstuff Co.,Ltd.",
    "location":{
      "latitude":39.946827,
      "longitude":116.34965199999999
    },
    "address":"60 Jiaoda East Rd, Haidian"
  },
  {
    "id":"a1b014ff4d8f0198dbc30bb46235e32cc31d373e",
    "name":"Fruitime",
    "location":{
      "latitude":39.949122,
      "longitude":116.34460100000001
    },
    "address":"Jiaotong Daxue Rd, Haidian"
  },
  {
    "id":"69acec215cef0992b6e45cc69a56f5c82eca4d99",
    "name":"Dao Xiang Cun",
    "location":{
      "latitude":39.946209,
      "longitude":116.34986900000001
    },
    "address":"60 Jiaoda East Rd, Haidian"
  },
  {
    "id":"d4bee7a3566cc8bd6dc4861d4b4a5eca7c925828",
    "name":"Xiabu Xiabu",
    "location":{
      "latitude":39.957877,
      "longitude":116.348929
    },
    "address":"-1号华联商厦1层, 50 Xueyuan South Rd, Haidian"
  },
  {
    "id":"65f9a946d52960d997914deccbbb29c7ec51d567",
    "name":"周黑鸭",
    "location":{
      "latitude":39.957893,
      "longitude":116.35155399999996
    },
    "address":"42 Xueyuan South Rd, Haidian"
  },
  {
    "id":"478ff24d07f126886e79259bb8e546b12de5b5b1",
    "name":"嘉禾一品交大东路店",
    "location":{
      "latitude":39.950344,
      "longitude":116.34809900000005
    },
    "address":"交大东路25, Haidian, Beijing"
  },
  {
    "id":"d58e21ed993678d74886a5ba80773432abbe8df6",
    "name":"迪亚天天交大折扣超市",
    "location":{
      "latitude":39.946209,
      "longitude":116.34986900000001
    },
    "address":"60 Jiaoda East Rd, Haidian"
  },
  {
    "id":"151cb48bef28bf70f219a42d9b77be6ae67f5b04",
    "name":"肯德基学院南路餐厅",
    "location":{
      "latitude":39.957871,
      "longitude":116.34867299999996
    },
    "address":"学院南路50-1, Haidian, Beijing"
  },
  {
    "id":"3dea60467574d084766d2517c8c5b86db97d931a",
    "name":"Liangjiang",
    "location":{
      "latitude":39.949679,
      "longitude":116.347443
    },
    "address":"Jiaotong Daxue Rd, Haidian, Beijing"
  },
  {
    "id":"a49e08ec95b1aa7fbe84941e40ad520a64c01496",
    "name":"赛百味",
    "location":{
      "latitude":39.954129,
      "longitude":116.34701900000005
    },
    "address":"上园村3号, Haidian, Beijing"
  },
  {
    "id":"8f909e65bb3664968ff52e97a95327b0d222765d",
    "name":"7-Eleven",
    "location":{
      "latitude":39.94966,
      "longitude":116.34717999999998
    },
    "address":"Jiaotong Daxue Rd, Haidian"
  },
  {
    "id":"d7be8ac0ebccaeb82469eb4eb6edd4274f80a8e3",
    "name":"Yoshinoya",
    "location":{
      "latitude":39.957872,
      "longitude":116.34869200000003
    },
    "address":"50 Xueyuan South Rd, Haidian"
  },
  {
    "id":"74478ef0b27aea3684cab32a90ac7e84b41ff30c",
    "name":"Dia",
    "location":{
      "latitude":39.949794,
      "longitude":116.34674599999994
    },
    "address":"1 Jiaotong Daxue Rd, Haidian"
  },
  {
    "id":"0bf0b526332edbf694b47ca7e58f53a157c7719a",
    "name":"Baijin Karaoke Square",
    "location":{
      "latitude":39.950156,
      "longitude":116.34763399999997
    },
    "address":"25 Jiaotong Daxue Rd, Haidian"
  },
  {
    "id":"621307a05752baf30cdf53cf3488866df231eea1",
    "name":"Jiahe Yipin Zhou",
    "location":{
      "latitude":39.950206,
      "longitude":116.34777200000008
    },
    "address":"Jiaotong Daxue Rd, Haidian"
  },
  {
    "id":"575694bfe1d5315827b66be270ee60b71e0e4c89",
    "name":"马兰拉面",
    "location":{
      "latitude":39.949664,
      "longitude":116.34723699999995
    },
    "address":"1 Jiaotong Daxue Rd, Haidian"
  },
  {
    "id":"46052b5675141cdc35d39300821c227649507061",
    "name":"久久丫",
    "location":{
      "latitude":39.949292,
      "longitude":116.34513100000004
    },
    "address":"交通大学路, Haidian, Beijing"
  },
  {
    "id":"ee0c13e24f10718d6dda340bf80c072259e78ab6",
    "name":"鸿飞阁",
    "location":{
      "latitude":39.945961,
      "longitude":116.34423100000004
    },
    "address":"高粱桥斜街, Haidian, Beijing"
  },
  {
    "id":"874b13ec1bfeeef9bcdd4f557061912ef3c78ff4",
    "name":"Yonho King",
    "location":{
      "latitude":39.949032,
      "longitude":116.34432500000003
    },
    "address":"Jiaotong Daxue Rd, Haidian"
  },
  {
    "id":"b0bda386fe5882e7f8dee3cc4b25fbf71695c5eb",
    "name":"畅饮茶楼",
    "location":{
      "latitude":39.951662,
      "longitude":116.34866199999999
    },
    "address":"交大东路36号, Haidian, Beijing"
  },
  {
    "id":"bbe19c4d9a728c30c09625af3d870cb1679cd2dd",
    "name":"上海华联超市",
    "location":{
      "latitude":39.955998,
      "longitude":116.34663799999998
    },
    "address":"交大东路, Haidian, Beijing"
  },
  {
    "id":"e23bb74b1a24836299bee869a79e12a8db4075b4",
    "name":"漫无目的",
    "location":{
      "latitude":39.949627,
      "longitude":116.34595200000001
    },
    "address":"交通大学路1号院4, Haidian, Beijing"
  },
  {
    "id":"0676bbe7e2c626afffd99ca02023a3fa27fd0c36",
    "name":"金凤成祥交大一店",
    "location":{
      "latitude":39.950047,
      "longitude":116.34872399999995
    },
    "address":"Jiaoda East Rd, Haidian"
  },
  {
    "id":"b69706e056add3a126f0e854e0af43b7e7c9c394",
    "name":"Beijing Jiaotong University （East Campus） Student Dining Hall",
    "location":{
      "latitude":39.948596,
      "longitude":116.34606800000006
    },
    "address":"Jiaotong Daxue Rd, Haidian"
  },
  {
    "id":"d9b2c2c8a71359f8c83d8731cc8701e6d0b451ad",
    "name":"Siyuan Qingsi",
    "location":{
      "latitude":39.950494,
      "longitude":116.34435699999995
    },
    "address":"Jiaotong Daxue Rd, Haidian"
  },
  {
    "id":"964ad01cc36065c2ee26b8486fdbddcd1fcbed15",
    "name":"Wu Mart",
    "location":{
      "latitude":39.949691,
      "longitude":116.34806600000002
    },
    "address":"31 Jiaotong Daxue Rd, Haidian"
  },
  {
    "id":"c57680de3f3a31687b54b491c31388f8db313bc8",
    "name":"Xiaoxiong Home",
    "location":{
      "latitude":39.951222,
      "longitude":116.34844499999997
    },
    "address":"36 Jiaoda East Rd, Haidian"
  },
  {
    "id":"777c830ed59b078426e611c6718b65b18dea51ba",
    "name":"友圃咖啡",
    "location":{
      "latitude":39.957818,
      "longitude":116.34628799999996
    },
    "address":"交大东路1号交通大学逸夫楼3楼, Haidian, Beijing"
  },
  {
    "id":"bf26f230c5a9a1903cf22d19d209737ba47e52dd",
    "name":"沙县小吃北京交大东门店",
    "location":{
      "latitude":39.953082,
      "longitude":116.34794099999999
    },
    "address":"交大东路, Haidian, Beijing"
  },
  {
    "id":"9bcd3149d8646bacaba90f2c778ffaf098c6e11e",
    "name":"小杨楼私房菜馆",
    "location":{
      "latitude":39.949546,
      "longitude":116.34891500000003
    },
    "address":"52 Jiaoda East Rd, Haidian"
  },
  {
    "id":"89f0714067d8fd4356c6be658d2acaf73bb768af",
    "name":"Xinfadi Baigewan （Jiaoda） Community Convenient Vegetable Shop",
    "location":{
      "latitude":39.94957,
      "longitude":116.34597299999996
    },
    "address":"Jiaotong Daxue Rd, Haidian"
  },
  {
    "id":"43f03f639a633e4278e37bdad6ac5728562d4bf0",
    "name":"Chaoshifa Convenience Store",
    "location":{
      "latitude":39.949083,
      "longitude":116.34448399999997
    },
    "address":"1 Jiaotong Daxue Rd, Haidian"
  },
  {
    "id":"2f16e4b194f3d249a79657e0e694ef6d3c469ce8",
    "name":"C平方酸奶店",
    "location":{
      "latitude":39.949758,
      "longitude":116.34672799999998
    },
    "address":"交通大学路交大家园5号楼（辣尚瘾烤鱼对面）, Haidian, Beijing"
  },
  {
    "id":"d45f6e0f495c3bda3dc1c87bb91f89507a2e8101",
    "name":"学苑餐厅",
    "location":{
      "latitude":39.951979,
      "longitude":116.34725900000001
    },
    "address":"北京交通大学校外公寓, Haidian, Beijing"
  },
  {
    "id":"91a5cc4e0079a2d13f536ece95238b03a3753faa",
    "name":"福成肥牛嘉茂店",
    "location":{
      "latitude":39.956781,
      "longitude":116.34604000000002
    },
    "address":"西直门嘉茂购物广场四、五层, Haidian, Beijing"
  },
  {
    "id":"28445879bd7b34ced193cd0894e4f29f29d1b78b",
    "name":"校门口",
    "location":{
      "latitude":39.954198,
      "longitude":116.34709999999995
    },
    "address":"北京交通大学家属区（东门）, Jiaoda East Rd, Haidian"
  },
  {
    "id":"583195308c5d7ef63495d672c70b6ee276ad8718",
    "name":"好吃坊",
    "location":{
      "latitude":39.95225,
      "longitude":116.34776
    },
    "address":"交大东路17号, Haidian, Beijing"
  },
  {
    "id":"37243f3f36e1717980957693b5f3ef716bdb4703",
    "name":"尚膳大食堂",
    "location":{
      "latitude":39.95397,
      "longitude":116.34745999999996
    },
    "address":"交大东路（近佰金ktv）, Haidian, Beijing"
  },
  {
    "id":"4fcbf90edea9ec2ef27509d1da368ea8c0805584",
    "name":"Axiang Rice Noodles",
    "location":{
      "latitude":39.957878,
      "longitude":116.34894800000006
    },
    "address":"48 Xueyuan South Rd, Haidian"
  },
  {
    "id":"117bafb30a2f3a380578d98ca0e5b877ee72e99f",
    "name":"蝎王府羊蝎子",
    "location":{
      "latitude":39.950165,
      "longitude":116.34766000000002
    },
    "address":"25 Jiaotong Daxue Rd, Haidian"
  },
  {
    "id":"029a3b13120bf957ce6aa97f4d32fed5144867a8",
    "name":"新疆美食城",
    "location":{
      "latitude":39.957128,
      "longitude":116.34630800000002
    },
    "address":"学院南路27号, Haidian, Beijing"
  },
  {
    "id":"9577951c140419772e258efa7d98fd438d611dca",
    "name":"阳光缘林咖啡交大店",
    "location":{
      "latitude":39.94993,
      "longitude":116.34702800000002
    },
    "address":"Haidian, Beijing"
  },
  {
    "id":"719cda9132b4206302f04c6541f90eaf56a89e67",
    "name":"Tianfu Xiangguo",
    "location":{
      "latitude":39.95217,
      "longitude":116.34774300000004
    },
    "address":"17 Jiaoda East Rd, Haidian"
  },
  {
    "id":"0deb9637455b190bd2a1723c28b7bd932bcd54cc",
    "name":"宜品小肥羊",
    "location":{
      "latitude":39.95234,
      "longitude":116.34770000000003
    },
    "address":"西直门外交大东路, Haidian, Beijing"
  }
]
